$GPVTG,,T,,M,0.191,N,0.353,K,A*2F
$GPGGA,194945.00,4545.61155,N,00451.06751,E,1,06,1.61,289.0,M,47.4,M,,*5F
$GPGSA,A,3,27,16,19,04,18,22,,,,,,,2.93,1.61,2.45*08
$GPGSV,4,1,13,04,15,245,21,07,14,304,17,11,02,260,17,13,00,014,*7A
$GPGSV,4,2,13,15,06,044,09,16,60,200,26,18,50,083,31,19,42,297,21*75
$GPGSV,4,3,13,21,26,061,,22,51,144,22,26,33,175,13,27,73,320,34*7B
$GPGSV,4,4,13,30,05,331,*4C
$GPGLL,4545.61155,N,00451.06751,E,194945.00,A,A*6E
$GPRMC,194946.00,A,4545.61146,N,00451.06747,E,0.216,,260515,,,A*71
$GPVTG,,T,,M,0.216,N,0.399,K,A*25
$GPGGA,194946.00,4545.61146,N,00451.06747,E,1,06,1.61,289.0,M,47.4,M,,*59
$GPGSA,A,3,27,16,19,04,18,22,,,,,,,2.93,1.61,2.45*08
$GPGSV,4,1,13,04,15,245,21,07,14,304,17,11,02,260,17,13,00,014,*7A
$GPGSV,4,2,13,15,06,044,07,16,60,200,26,18,50,083,30,19,42,297,21*7A
$GPGSV,4,3,13,21,26,061,,22,51,144,22,26,33,175,12,27,73,320,34*7A
$GPGSV,4,4,13,30,05,331,*4C
$GPGLL,4545.61146,N,00451.06747,E,194946.00,A,A*68
$GPRMC,194947.00,A,4545.61138,N,00451.06741,E,0.354,,260515,,,A*78
$GPVTG,,T,,M,0.354,N,0.655,K,A*27
$GPGGA,194947.00,4545.61138,N,00451.06741,E,1,06,1.61,288.8,M,47.4,M,,*5E
$GPGSA,A,3,27,16,19,04,18,22,,,,,,,2.93,1.61,2.45*08
$GPGSV,4,1,13,04,15,245,20,07,14,304,17,11,02,260,18,13,00,014,*74
$GPGSV,4,2,13,15,06,044,07,16,60,200,26,18,50,083,31,19,42,297,22*78
$GPGSV,4,3,13,21,26,061,,22,51,144,23,26,33,175,13,27,73,320,34*7A
$GPGSV,4,4,13,30,05,331,*4C
$GPGLL,4545.61138,N,00451.06741,E,194947.00,A,A*66
$GPRMC,194948.00,A,4545.61138,N,00451.06746,E,0.037,,260515,,,A*76
$GPVTG,,T,,M,0.037,N,0.069,K,A*28
$GPGGA,194948.00,4545.61138,N,00451.06746,E,1,06,1.61,289.1,M,47.4,M,,*5E
$GPGSA,A,3,27,16,19,04,18,22,,,,,,,2.93,1.61,2.45*08
$GPGSV,4,1,13,04,15,245,19,07,14,304,18,11,02,260,18,13,00,014,*71
$GPGSV,4,2,13,15,06,044,07,16,60,200,26,18,50,083,31,19,42,297,21*7B
$GPGSV,4,3,13,21,26,061,,22,51,144,23,26,33,175,14,27,73,320,34*7D
$GPGSV,4,4,13,30,05,331,*4C
$GPGLL,4545.61138,N,00451.06746,E,194948.00,A,A*6E
$GPRMC,194949.00,A,4545.61123,N,00451.06746,E,0.085,,260515,,,A*74
$GPVTG,,T,,M,0.085,N,0.158,K,A*22
$GPGGA,194949.00,4545.61123,N,00451.06746,E,1,06,1.61,289.1,M,47.4,M,,*55
$GPGSA,A,3,27,16,19,04,18,22,,,,,,,2.93,1.61,2.45*08
$GPGSV,4,1,13,04,15,245,19,07,14,304,19,11,02,260,19,13,00,014,*71
$GPGSV,4,2,13,15,06,044,07,16,60,200,26,18,50,083,31,19,42,297,22*78
$GPGSV,4,3,13,21,26,061,,22,51,144,23,26,33,175,14,27,73,320,34*7D
$GPGSV,4,4,13,30,05,331,*4C
$GPGLL,4545.61123,N,00451.06746,E,194949.00,A,A*65
$GPRMC,194950.00,A,4545.61125,N,00451.06743,E,0.122,,260515,,,A*73
$GPVTG,,T,,M,0.122,N,0.226,K,A*24
$GPGGA,194950.00,4545.61125,N,00451.06743,E,1,06,1.61,289.0,M,47.4,M,,*5F
$GPGSA,A,3,27,16,19,04,18,22,,,,,,,2.93,1.61,2.45*08
$GPGSV,4,1,13,04,15,245,19,07,14,304,19,11,02,260,18,13,00,014,*70
$GPGSV,4,2,13,15,06,044,07,16,60,200,26,18,50,083,31,19,42,297,21*7B
$GPGSV,4,3,13,21,26,061,,22,51,144,23,26,33,175,12,27,73,320,34*7B
$GPGSV,4,4,13,30,05,331,*4C
$GPGLL,4545.61125,N,00451.06743,E,194950.00,A,A*6E
$GPRMC,194951.00,A,4545.61130,N,00451.06737,E,0.178,,260515,,,A*7A
$GPVTG,,T,,M,0.178,N,0.329,K,A*25
$GPGGA,194951.00,4545.61130,N,00451.06737,E,1,06,1.61,288.6,M,47.4,M,,*5E
$GPGSA,A,3,27,16,19,04,18,22,,,,,,,2.93,1.61,2.45*08
$GPGSV,4,1,13,04,15,245,19,07,14,304,20,11,02,260,18,13,00,014,*7A
$GPGSV,4,2,13,15,06,044,07,16,60,200,26,18,50,083,30,19,42,297,21*7A
$GPGSV,4,3,13,21,26,061,,22,51,144,23,26,33,175,12,27,73,320,34*7B
$GPGSV,4,4,13,30,05,331,*4C
$GPGLL,4545.61130,N,00451.06737,E,194951.00,A,A*68
$GPRMC,194952.00,A,4545.61131,N,00451.06728,E,0.223,,260515,,,A*7B
$GPVTG,,T,,M,0.223,N,0.412,K,A*27
$GPGGA,194952.00,4545.61131,N,00451.06728,E,1,06,1.61,288.2,M,47.4,M,,*56
$GPGSA,A,3,27,16,19,04,18,22,,,,,,,2.93,1.61,2.45*08
$GPGSV,4,1,13,04,15,245,19,07,14,304,20,11,02,260,19,13,00,014,*7B
$GPGSV,4,2,13,15,06,044,07,16,60,200,26,18,50,083,31,19,42,297,21*7B
$GPGSV,4,3,13,21,26,061,,22,51,144,23,26,33,175,12,27,73,320,34*7B
$GPGSV,4,4,13,30,05,331,*4C
$GPGLL,4545.61131,N,00451.06728,E,194952.00,A,A*64
$GPRMC,194953.00,A,4545.61122,N,00451.06709,E,0.390,,260515,,,A*72
$GPVTG,,T,,M,0.390,N,0.722,K,A*2E
$GPGGA,194953.00,4545.61122,N,00451.06709,E,1,06,1.61,287.8,M,47.4,M,,*53
$GPGSA,A,3,27,16,19,04,18,22,,,,,,,2.93,1.61,2.45*08
$GPGSV,4,1,13,04,15,245,19,07,14,304,20,11,02,260,19,13,00,014,*7B
$GPGSV,4,2,13,15,06,044,07,16,60,200,27,18,50,083,30,19,42,297,21*7B
$GPGSV,4,3,13,21,26,061,,22,51,144,23,26,33,175,13,27,73,320,34*7A
$GPGSV,4,4,13,30,05,331,*4C
$GPGLL,4545.61122,N,00451.06709,E,194953.00,A,A*64
$GPRMC,194954.00,A,4545.61122,N,00451.06715,E,0.066,,260515,,,A*72
$GPVTG,,T,,M,0.066,N,0.123,K,A*23
$GPGGA,194954.00,4545.61122,N,00451.06715,E,1,06,1.61,287.8,M,47.4,M,,*59
$GPGSA,A,3,27,16,19,04,18,22,,,,,,,2.93,1.61,2.45*08
$GPGSV,4,1,13,04,15,245,20,07,14,304,19,11,02,260,19,13,00,014,*7B
$GPGSV,4,2,13,15,06,044,07,16,60,200,26,18,50,083,30,19,42,297,21*7A
$GPGSV,4,3,13,21,26,061,,22,51,144,24,26,33,175,12,27,73,320,34*7C
$GPGSV,4,4,13,30,05,331,*4C
$GPGLL,4545.61122,N,00451.06715,E,194954.00,A,A*6E
$GPRMC,194955.00,A,4545.61120,N,00451.06713,E,0.046,,260515,,,A*75
$GPVTG,,T,,M,0.046,N,0.086,K,A*2F
$GPGGA,194955.00,4545.61120,N,00451.06713,E,1,06,1.61,287.5,M,47.4,M,,*51
$GPGSA,A,3,27,16,19,04,18,22,,,,,,,2.93,1.61,2.45*08
$GPGSV,4,1,13,04,15,245,20,07,14,304,20,11,02,260,19,13,00,014,*71
$GPGSV,4,2,13,15,06,044,07,16,60,200,27,18,50,083,30,19,42,297,21*7B
$GPGSV,4,3,13,21,26,061,,22,51,144,23,26,33,175,12,27,73,320,34*7B
$GPGSV,4,4,13,30,05,331,*4C
$GPGLL,4545.61120,N,00451.06713,E,194955.00,A,A*6B
$GPRMC,194956.00,A,4545.61115,N,00451.06705,E,0.109,,260515,,,A*7D
$GPVTG,,T,,M,0.109,N,0.203,K,A*2A
$GPGGA,194956.00,4545.61115,N,00451.06705,E,1,06,1.61,287.0,M,47.4,M,,*56
$GPGSA,A,3,27,16,19,04,18,22,,,,,,,2.93,1.61,2.45*08
$GPGSV,4,1,13,04,15,245,19,07,14,304,19,11,02,260,20,13,00,014,*7B
$GPGSV,4,2,13,15,06,044,07,16,60,200,27,18,50,083,30,19,42,297,21*7B
$GPGSV,4,3,13,21,26,061,,22,51,144,24,26,33,175,12,27,73,320,34*7C
$GPGSV,4,4,13,30,05,331,*4C
$GPGLL,4545.61115,N,00451.06705,E,194956.00,A,A*69
$GPRMC,194957.00,A,4545.61123,N,00451.06703,E,0.185,,260515,,,A*7B
$GPVTG,,T,,M,0.185,N,0.342,K,A*2A
$GPGGA,194957.00,4545.61123,N,00451.06703,E,1,06,1.61,286.8,M,47.4,M,,*5D
$GPGSA,A,3,27,16,19,04,18,22,,,,,,,2.93,1.61,2.45*08
$GPGSV,4,1,13,04,15,245,19,07,14,304,19,11,02,260,21,13,00,014,*7A
$GPGSV,4,2,13,15,06,044,07,16,60,200,27,18,50,083,30,19,42,297,22*78
$GPGSV,4,3,13,21,26,061,,22,51,144,24,26,33,175,,27,73,320,34*7F
$GPGSV,4,4,13,30,05,331,*4C
$GPGLL,4545.61123,N,00451.06703,E,194957.00,A,A*6B
$GPRMC,194958.00,A,4545.61109,N,00451.06699,E,0.031,,260515,,,A*70
$GPVTG,,T,,M,0.031,N,0.058,K,A*2C
$GPGGA,194958.00,4545.61109,N,00451.06699,E,1,06,1.61,286.5,M,47.4,M,,*55
$GPGSA,A,3,27,16,19,04,18,22,,,,,,,2.93,1.61,2.45*08
$GPGSV,4,1,13,04,15,245,18,07,14,304,19,11,02,260,22,13,00,014,*78
$GPGSV,4,2,13,15,06,044,08,16,60,200,27,18,50,083,30,19,42,297,22*77
$GPGSV,4,3,13,21,26,061,,22,51,144,23,26,33,175,,27,73,320,34*78
$GPGSV,4,4,13,30,05,331,*4C
$GPGLL,4545.61109,N,00451.06699,E,194958.00,A,A*6E
$GPRMC,194959.00,A,4545.61102,N,00451.06691,E,0.083,,260515,,,A*7B
$GPVTG,,T,,M,0.083,N,0.154,K,A*28
$GPGGA,194959.00,4545.61102,N,00451.06691,E,1,06,1.61,286.1,M,47.4,M,,*53
$GPGSA,A,3,27,16,19,04,18,22,,,,,,,2.93,1.61,2.45*08
$GPGSV,4,1,13,04,15,245,18,07,14,304,20,11,02,260,22,13,00,014,*72
$GPGSV,4,2,13,15,06,044,08,16,60,200,27,18,50,083,30,19,42,297,22*77
$GPGSV,4,3,13,21,26,061,,22,51,144,23,26,33,175,,27,73,320,34*78
$GPGSV,4,4,13,30,05,331,*4C
$GPGLL,4545.61102,N,00451.06691,E,194959.00,A,A*6C
$GPRMC,195000.00,A,4545.61096,N,00451.06687,E,0.034,,260515,,,A*78
$GPVTG,,T,,M,0.034,N,0.063,K,A*21
$GPGGA,195000.00,4545.61096,N,00451.06687,E,1,06,1.61,285.8,M,47.4,M,,*56
$GPGSA,A,3,27,16,19,04,18,22,,,,,,,2.93,1.61,2.45*08
$GPGSV,4,1,13,04,15,245,18,07,14,304,19,11,02,260,22,13,00,014,*78
$GPGSV,4,2,13,15,06,044,08,16,60,200,27,18,50,083,30,19,42,297,22*77
$GPGSV,4,3,13,21,26,061,,22,51,144,23,26,33,175,,27,73,320,34*78
$GPGSV,4,4,13,30,05,331,*4C
$GPGLL,4545.61096,N,00451.06687,E,195000.00,A,A*63
$GPRMC,195001.00,A,4545.61077,N,00451.06681,E,0.201,,260515,,,A*74
$GPVTG,,T,,M,0.201,N,0.372,K,A*26
$GPGGA,195001.00,4545.61077,N,00451.06681,E,1,06,1.61,285.3,M,47.4,M,,*55
$GPGSA,A,3,27,16,19,04,18,22,,,,,,,2.93,1.61,2.45*08
$GPGSV,4,1,13,04,15,245,19,07,14,304,19,11,02,260,22,13,00,014,*79
$GPGSV,4,2,13,15,06,044,08,16,60,200,27,18,50,083,30,19,42,297,22*77
$GPGSV,4,3,13,21,26,061,,22,51,144,24,26,33,175,,27,73,320,34*7F
$GPGSV,4,4,13,30,05,331,*4C
$GPGLL,4545.61077,N,00451.06681,E,195001.00,A,A*6B
$GPRMC,195002.00,A,4545.61083,N,00451.06675,E,0.009,,260515,,,A*7D
$GPVTG,,T,,M,0.009,N,0.016,K,A*2D
$GPGGA,195002.00,4545.61083,N,00451.06675,E,1,06,1.61,284.9,M,47.4,M,,*5D
$GPGSA,A,3,27,16,19,04,18,22,,,,,,,2.93,1.61,2.45*08
$GPGSV,4,1,13,04,15,245,19,07,14,304,19,11,02,260,22,13,00,014,*79
$GPGSV,4,2,13,15,06,044,08,16,60,200,27,18,50,083,30,19,42,297,22*77
$GPGSV,4,3,13,21,26,061,,22,51,144,24,26,33,175,,27,73,320,33*78
$GPGSV,4,4,13,30,05,331,*4C
$GPGLL,4545.61083,N,00451.06675,E,195002.00,A,A*68
$GPRMC,195003.00,A,4545.61095,N,00451.06653,E,0.273,,260515,,,A*70
$GPVTG,,T,,M,0.273,N,0.506,K,A*26
$GPGGA,195003.00,4545.61095,N,00451.06653,E,1,06,1.61,284.2,M,47.4,M,,*54
$GPGSA,A,3,27,16,19,04,18,22,,,,,,,2.93,1.61,2.45*08
$GPGSV,4,1,13,04,15,245,18,07,14,304,19,11,02,260,22,13,00,014,*78
$GPGSV,4,2,13,15,06,044,08,16,60,200,27,18,50,083,30,19,42,297,22*77
$GPGSV,4,3,13,21,26,061,,22,51,144,24,26,33,175,,27,73,320,33*78
$GPGSV,4,4,13,30,05,331,*4C
$GPGLL,4545.61095,N,00451.06653,E,195003.00,A,A*6A
$GPRMC,195004.00,A,4545.61096,N,00451.06645,E,0.127,,260515,,,A*71
$GPVTG,,T,,M,0.127,N,0.235,K,A*23
$GPGGA,195004.00,4545.61096,N,00451.06645,E,1,06,1.61,283.8,M,47.4,M,,*5A
$GPGSA,A,3,27,16,19,04,18,22,,,,,,,2.94,1.61,2.45*0F
$GPGSV,4,1,13,04,15,245,19,07,14,304,19,11,02,260,23,13,00,014,*78
$GPGSV,4,2,13,15,06,044,06,16,60,200,27,18,50,083,30,19,42,297,21*7A
$GPGSV,4,3,13,21,26,061,,22,51,144,24,26,33,175,,27,73,320,33*78
$GPGSV,4,4,13,30,05,331,*4C
$GPGLL,4545.61096,N,00451.06645,E,195004.00,A,A*69
$GPRMC,195005.00,A,4545.61089,N,00451.06637,E,0.075,,260515,,,A*7D
$GPVTG,,T,,M,0.075,N,0.139,K,A*2A
$GPGGA,195005.00,4545.61089,N,00451.06637,E,1,06,1.61,283.2,M,47.4,M,,*5A
$GPGSA,A,3,27,16,19,04,18,22,,,,,,,2.94,1.61,2.45*0F
$GPGSV,4,1,13,04,15,245,18,07,14,304,20,11,02,260,23,13,00,014,*73
$GPGSV,4,2,13,15,06,044,06,16,60,200,27,18,50,083,30,19,42,297,21*7A
$GPGSV,4,3,13,21,26,061,,22,51,144,24,26,33,175,,27,73,320,34*7F
$GPGSV,4,4,13,30,05,331,*4C
$GPGLL,4545.61089,N,00451.06637,E,195005.00,A,A*63
$GPRMC,195006.00,A,4545.61087,N,00451.06627,E,0.084,,260515,,,A*7F
$GPVTG,,T,,M,0.084,N,0.155,K,A*2E
$GPGGA,195006.00,4545.61087,N,00451.06627,E,1,06,1.61,282.6,M,47.4,M,,*53
$GPGSA,A,3,27,16,19,04,18,22,,,,,,,2.94,1.61,2.45*0F
$GPGSV,4,1,13,04,15,245,18,07,14,304,20,11,02,260,24,13,00,014,*74
$GPGSV,4,2,13,15,06,044,,16,60,200,27,18,50,083,30,19,42,297,22*7F
$GPGSV,4,3,13,21,26,061,,22,51,144,25,26,33,175,,27,73,320,34*7E
$GPGSV,4,4,13,30,05,331,*4C
$GPGLL,4545.61087,N,00451.06627,E,195006.00,A,A*6F
$GPRMC,195007.00,A,4545.61080,N,00451.06614,E,0.180,,260515,,,A*7C
$GPVTG,,T,,M,0.180,N,0.333,K,A*29
$GPGGA,195007.00,4545.61080,N,00451.06614,E,1,06,1.61,282.0,M,47.4,M,,*53
$GPGSA,A,3,27,16,19,04,18,22,,,,,,,2.94,1.61,2.45*0F
$GPGSV,4,1,13,04,15,245,19,07,14,304,20,11,02,260,23,13,00,014,*72
$GPGSV,4,2,13,15,06,044,,16,60,200,27,18,50,083,31,19,42,297,22*7E
$GPGSV,4,3,13,21,26,061,,22,51,144,25,26,33,175,,27,73,320,34*7E
$GPGSV,4,4,13,30,05,331,*4C
$GPGLL,4545.61080,N,00451.06614,E,195007.00,A,A*69
$GPRMC,195008.00,A,4545.61079,N,00451.06606,E,0.218,,260515,,,A*74
$GPVTG,,T,,M,0.218,N,0.404,K,A*28
$GPGGA,195008.00,4545.61079,N,00451.06606,E,1,06,1.61,281.5,M,47.4,M,,*5F
$GPGSA,A,3,27,16,19,04,18,22,,,,,,,2.94,1.61,2.46*0C
$GPGSV,4,1,13,04,15,245,18,07,14,304,20,11,02,260,24,13,00,014,*74
$GPGSV,4,2,13,15,06,044,,16,60,200,27,18,50,083,30,19,42,297,22*7F
$GPGSV,4,3,13,21,26,061,,22,51,144,25,26,33,175,,27,73,320,34*7E
$GPGSV,4,4,13,30,05,331,*4C
$GPGLL,4545.61079,N,00451.06606,E,195008.00,A,A*63
$GPRMC,195009.00,A,4545.61089,N,00451.06614,E,0.135,,260515,,,A*75
$GPVTG,,T,,M,0.135,N,0.250,K,A*23
$GPGGA,195009.00,4545.61089,N,00451.06614,E,1,06,1.61,281.2,M,47.4,M,,*55
$GPGSA,A,3,27,16,19,04,18,22,,,,,,,2.94,1.61,2.46*0C
$GPGSV,4,1,13,04,15,245,19,07,14,304,19,11,02,260,25,13,00,014,*7E
$GPGSV,4,2,13,15,06,044,,16,60,200,27,18,50,083,30,19,42,297,23*7E
$GPGSV,4,3,13,21,26,061,,22,51,144,25,26,33,175,,27,73,320,34*7E
$GPGSV,4,4,13,30,05,331,*4C
$GPGLL,4545.61089,N,00451.06614,E,195009.00,A,A*6E
$GPRMC,195010.00,A,4545.61090,N,00451.06603,E,0.060,,260515,,,A*72
$GPVTG,,T,,M,0.060,N,0.111,K,A*24
$GPGGA,195010.00,4545.61090,N,00451.06603,E,1,06,1.61,280.6,M,47.4,M,,*56
$GPGSA,A,3,27,16,19,04,18,22,,,,,,,2.94,1.61,2.46*0C
$GPGSV,4,1,13,04,15,245,20,07,14,304,19,11,02,260,24,13,00,014,*75
$GPGSV,4,2,13,15,06,044,,16,60,200,26,18,50,083,30,19,42,297,23*7F
$GPGSV,4,3,13,21,26,061,,22,51,144,25,26,33,175,,27,73,320,34*7E
$GPGSV,4,4,13,30,05,331,*4C
$GPGLL,4545.61090,N,00451.06603,E,195010.00,A,A*68
$GPRMC,195011.00,A,4545.61095,N,00451.06618,E,0.191,,260515,,,A*73
$GPVTG,,T,,M,0.191,N,0.353,K,A*2F
$GPGGA,195011.00,4545.61095,N,00451.06618,E,1,06,1.61,280.5,M,47.4,M,,*5B
$GPGSA,A,3,27,16,19,04,18,22,,,,,,,2.94,1.61,2.46*0C
$GPGSV,4,1,13,04,15,245,20,07,14,304,18,11,02,260,24,13,00,014,*74
$GPGSV,4,2,13,15,06,044,,16,60,200,26,18,50,083,30,19,42,297,22*7E
$GPGSV,4,3,13,21,26,061,,22,51,144,25,26,33,175,,27,73,320,34*7E
$GPGSV,4,4,13,30,05,331,*4C
$GPGLL,4545.61095,N,00451.06618,E,195011.00,A,A*66
$GPRMC,195012.00,A,4545.61092,N,00451.06609,E,0.085,,260515,,,A*73
$GPVTG,,T,,M,0.085,N,0.157,K,A*2D
$GPGGA,195012.00,4545.61092,N,00451.06609,E,1,06,1.61,279.9,M,47.4,M,,*55
$GPGSA,A,3,27,16,19,04,18,22,,,,,,,2.94,1.61,2.46*0C
$GPGSV,4,1,13,04,15,245,20,07,14,304,18,11,02,260,23,13,00,014,*73
$GPGSV,4,2,13,15,06,044,,16,60,200,27,18,50,083,30,19,42,297,23*7E
$GPGSV,4,3,13,21,26,061,,22,51,144,26,26,33,175,,27,73,320,34*7D
$GPGSV,4,4,13,30,05,331,*4C
$GPGLL,4545.61092,N,00451.06609,E,195012.00,A,A*62
$GPRMC,195013.00,A,4545.61097,N,00451.06609,E,0.010,,260515,,,A*7B
$GPVTG,,T,,M,0.010,N,0.018,K,A*2B
$GPGGA,195013.00,4545.61097,N,00451.06609,E,1,06,1.61,279.6,M,47.4,M,,*5E
$GPGSA,A,3,27,16,19,04,18,22,,,,,,,2.94,1.61,2.46*0C
$GPGSV,4,1,13,04,15,245,21,07,14,304,17,11,02,260,23,13,00,014,*7D
$GPGSV,4,2,13,15,06,044,,16,60,200,26,18,50,083,31,19,42,297,23*7E
$GPGSV,4,3,13,21,26,061,,22,51,144,25,26,33,175,,27,73,320,34*7E
$GPGSV,4,4,13,30,05,331,*4C
$GPGLL,4545.61097,N,00451.06609,E,195013.00,A,A*66
$GPRMC,195014.00,A,4545.61110,N,00451.06612,E,0.084,,260515,,,A*75
$GPVTG,,T,,M,0.084,N,0.156,K,A*2D
$GPGGA,195014.00,4545.61110,N,00451.06612,E,1,06,1.61,279.3,M,47.4,M,,*58
$GPGSA,A,3,27,16,19,04,18,22,,,,,,,2.94,1.61,2.46*0C
$GPGSV,4,1,13,04,15,245,20,07,14,304,17,11,02,260,23,13,00,014,*7C
$GPGSV,4,2,13,15,06,044,,16,60,200,26,18,50,083,31,19,42,297,22*7F
$GPGSV,4,3,13,21,26,061,,22,51,144,25,26,33,175,,27,73,320,34*7E
$GPGSV,4,4,13,30,05,331,*4C
$GPGLL,4545.61110,N,00451.06612,E,195014.00,A,A*65
$GPRMC,195015.00,A,4545.61113,N,00451.06607,E,0.051,,260515,,,A*7B
$GPVTG,,T,,M,0.051,N,0.095,K,A*2B
$GPGGA,195015.00,4545.61113,N,00451.06607,E,1,06,1.61,278.9,M,47.4,M,,*55
$GPGSA,A,3,27,16,19,04,18,22,,,,,,,2.94,1.61,2.46*0C
$GPGSV,4,1,13,04,15,245,19,07,14,304,17,11,02,260,23,13,00,014,*76
$GPGSV,4,2,13,15,06,044,,16,60,200,26,18,50,083,31,19,42,297,22*7F
$GPGSV,4,3,13,21,26,061,,22,51,144,25,26,33,175,16,27,73,320,34*79
$GPGSV,4,4,13,30,05,331,*4C
$GPGLL,4545.61113,N,00451.06607,E,195015.00,A,A*63
$GPRMC,195016.00,A,4545.61113,N,00451.06592,E,0.218,,260515,,,A*78
$GPVTG,,T,,M,0.218,N,0.404,K,A*28
$GPGGA,195016.00,4545.61113,N,00451.06592,E,1,06,1.61,278.3,M,47.4,M,,*53
$GPGSA,A,3,27,16,19,04,18,22,,,,,,,2.94,1.61,2.46*0C
$GPGSV,4,1,13,04,15,245,19,07,14,304,17,11,02,260,23,13,00,014,*76
$GPGSV,4,2,13,15,06,044,,16,60,200,26,18,50,083,30,19,42,297,23*7F
